{
  "type": "FeatureCollection",
  "features": [
    {
      "type": "Feature",
      "properties": {
        "name": "Eskihlíðarhnausa",
        "date": "8.6.2021",
        "length": "300",
        "description": "Við Eskihlíðarhnausa"
      },
      "geometry": {
        "type": "Point",
        "coordinates": [
          -19.098993,
          64.091046
        ]
      }
    },
    {
      "type": "Feature",
      "properties": {
        "name": "Frostastaðargatnamót",
        "date": "20.6.2021",
        "length": "4",
        "description": "Frostastaðargatnamót"
      },
      "geometry": {
        "type": "Point",
        "coordinates": [
          -19.046658,
          64.032267
        ]
      }
    },
    {
      "type": "Feature",
      "properties": {
        "name": "Dómadalshraun",
        "date": "21.6.2021",
        "length": "20",
        "description": "Dómadalshraun, pollur"
      },
      "geometry": {
        "type": "Point",
        "coordinates": [
          -19.115328,
          64.030617
        ]
      }
    },
    {
      "type": "Feature",
      "properties": {
        "name": "Dómadalshraun",
        "date": "24.6.2021",
        "length": "15",
        "description": "Dómadalshraun"
      },
      "geometry": {
        "type": "Point",
        "coordinates": [
          -19.111173,
          64.029556
        ]
      }
    },
    {
      "type": "Feature",
      "properties": {
        "name": "Dómadalshraun",
        "date": "25.6.2021",
        "length": "65",
        "description": "Dómadalshraun, pollur"
      },
      "geometry": {
        "type": "Point",
        "coordinates": [
          -19.115528,
          64.030556
        ]
      }
    },
    {
      "type": "Feature",
      "properties": {
        "name": "Dómadalshraun",
        "date": "25.6.2021",
        "length": "37",
        "description": "Dómadalshraun, pollur"
      },
      "geometry": {
        "type": "Point",
        "coordinates": [
          -19.115528,
          64.030556
        ]
      }
    },
    {
      "type": "Feature",
      "properties": {
        "name": "Fitjunum",
        "date": "27.6.2021",
        "length": "8",
        "description": "Fitjunum"
      },
      "geometry": {
        "type": "Point",
        "coordinates": [
          -19.29232,
          64.035417
        ]
      }
    },
    {
      "type": "Feature",
      "properties": {
        "name": "Eskihlíðarhnausa",
        "date": "2.7.2021",
        "length": "0",
        "description": "Við Eskihlíðarhnausa"
      },
      "geometry": {
        "type": "Point",
        "coordinates": [
          -19.05535,
          64.084595
        ]
      }
    },
    {
      "type": "Feature",
      "properties": {
        "name": "Eskihlíðarhnausa",
        "date": "2.7.2021",
        "length": "0",
        "description": "Við Eskihlíðarhnausa"
      },
      "geometry": {
        "type": "Point",
        "coordinates": [
          -19.061263,
          64.09142
        ]
      }
    },
    {
      "type": "Feature",
      "properties": {
        "name": "Eskihlíðarhnausa",
        "date": "2.7.2021",
        "length": "0",
        "description": "Við Eskihlíðarhnausa"
      },
      "geometry": {
        "type": "Point",
        "coordinates": [
          -19.054335,
          64.089642
        ]
      }
    },
    {
      "type": "Feature",
      "properties": {
        "name": "Sandbrekkan",
        "date": "5.7.2021",
        "length": "0",
        "description": "Landmannaleið, fyrir sandbrekkuna"
      },
      "geometry": {
        "type": "Point",
        "coordinates": [
          -19.570638,
          64.084892
        ]
      }
    },
    {
      "type": "Feature",
      "properties": {
        "name": "Sandbrekkan",
        "date": "6.7.2021",
        "length": "20",
        "description": "Landmannaleið, fyrir sandbrekkuna"
      },
      "geometry": {
        "type": "Point",
        "coordinates": [
          -19.567348,
          64.084015
        ]
      }
    },
    {
      "type": "Feature",
      "properties": {
        "name": "Eskihlíðarhnausa",
        "date": "6.7.2021",
        "length": "200",
        "description": "Við Eskihlíðarhnausa"
      },
      "geometry": {
        "type": "Point",
        "coordinates": [
          -19.051313,
          64.084858
        ]
      }
    },
    {
      "type": "Feature",
      "properties": {
        "name": "Dómadalshraun",
        "date": "8.7.2021",
        "length": "100",
        "description": "Dómadalshraun, þar sem stóri pollurinn var áður"
      },
      "geometry": {
        "type": "Point",
        "coordinates": [
          -19.114377,
          64.030936
        ]
      }
    },
    {
      "type": "Feature",
      "properties": {
        "name": "Hnausapolli",
        "date": "8.7.2021",
        "length": "50",
        "description": "Sigölduleið, rétt hjá Hnausapolli"
      },
      "geometry": {
        "type": "Point",
        "coordinates": [
          -19.048563,
          64.068625
        ]
      }
    },
    {
      "type": "Feature",
      "properties": {
        "name": "Sigölduleið",
        "date": "8.7.2021",
        "length": "80",
        "description": "Sigölduleið, rétt hjá minnismerki"
      },
      "geometry": {
        "type": "Point",
        "coordinates": [
          -19.051788,
          64.089652
        ]
      }
    },
    {
      "type": "Feature",
      "properties": {
        "name": "Eskihlíðarhnausa",
        "date": "8.7.2021",
        "length": "69",
        "description": "Við Eskihlíðarhnausa"
      },
      "geometry": {
        "type": "Point",
        "coordinates": [
          -19.091853,
          64.091313
        ]
      }
    },
    {
      "type": "Feature",
      "properties": {
        "name": "Eskihlíðarhnausa",
        "date": "8.7.2021",
        "length": "0",
        "description": "Við Eskihlíðarhnausa"
      },
      "geometry": {
        "type": "Point",
        "coordinates": [
          -19.057188,
          64.089635
        ]
      }
    },
    {
      "type": "Feature",
      "properties": {
        "name": "Eskihlíðarhnausa",
        "date": "9.7.2021",
        "length": "10",
        "description": "Við Eskihlíðarhnausa"
      },
      "geometry": {
        "type": "Point",
        "coordinates": [
          -19.054067,
          64.089563
        ]
      }
    },
    {
      "type": "Feature",
      "properties": {
        "name": "Eskihlíðarhnausa",
        "date": "9.7.2021",
        "length": "15",
        "description": "Við Eskihlíðarhnausa"
      },
      "geometry": {
        "type": "Point",
        "coordinates": [
          -19.065037,
          64.092037
        ]
      }
    },
    {
      "type": "Feature",
      "properties": {
        "name": "Eskihlíðarhnausa",
        "date": "9.7.2021",
        "length": "10",
        "description": "Við Eskihlíðarhnausa"
      },
      "geometry": {
        "type": "Point",
        "coordinates": [
          -19.082293,
          64.093495
        ]
      }
    },
    {
      "type": "Feature",
      "properties": {
        "name": "Frostastaðarvatn",
        "date": "9.7.2021",
        "length": "20",
        "description": "Norðan við Frostastaðarvatn"
      },
      "geometry": {
        "type": "Point",
        "coordinates": [
          -19.047951,
          64.032167
        ]
      }
    },
    {
      "type": "Feature",
      "properties": {
        "name": "Frostastaðarvatn",
        "date": "11.7.2021",
        "length": "166",
        "description": "Norðan við Frostastaðarvatn"
      },
      "geometry": {
        "type": "Point",
        "coordinates": [
          -19.050438,
          64.032438
        ]
      }
    },
    {
      "type": "Feature",
      "properties": {
        "name": "Hnausapoll",
        "date": "13.7.2021",
        "length": "281",
        "description": "Norðan við Hnausapoll"
      },
      "geometry": {
        "type": "Point",
        "coordinates": [
          -19.047278,
          64.063589
        ]
      }
    },
    {
      "type": "Feature",
      "properties": {
        "name": "Bjallavað",
        "date": "13.7.2021",
        "length": "41",
        "description": "Norðan við Bjallavað"
      },
      "geometry": {
        "type": "Point",
        "coordinates": [
          -19.108068,
          64.10722
        ]
      }
    },
    {
      "type": "Feature",
      "properties": {
        "name": "Sigöldu",
        "date": "13.7.2021",
        "length": "131",
        "description": "Sunnan við Sigöldu"
      },
      "geometry": {
        "type": "Point",
        "coordinates": [
          -19.136822,
          64.153393
        ]
      }
    },
    {
      "type": "Feature",
      "properties": {
        "name": "Landmannaleið",
        "date": "13.7.2021",
        "length": "150",
        "description": "Landmannaleið, Lambaskarð"
      },
      "geometry": {
        "type": "Point",
        "coordinates": [
          -19.374995,
          64.061172
        ]
      }
    },
    {
      "type": "Feature",
      "properties": {
        "name": "Hnausapoll",
        "date": "16.7.2021",
        "length": "44",
        "description": "Norðan við hnausapoll"
      },
      "geometry": {
        "type": "Point",
        "coordinates": [
          -19.049992,
          64.066135
        ]
      }
    },
    {
      "type": "Feature",
      "properties": {
        "name": "Sandbrekkan",
        "date": "17.7.2021",
        "length": "28",
        "description": "Neðan við sandbrekkuna á F225"
      },
      "geometry": {
        "type": "Point",
        "coordinates": [
          -19.566307,
          64.084755
        ]
      }
    },
    {
      "type": "Feature",
      "properties": {
        "name": "Sandbrekkan",
        "date": "17.7.2021",
        "length": "126",
        "description": "Í sandbrekkunni á F225"
      },
      "geometry": {
        "type": "Point",
        "coordinates": [
          -19.561165,
          64.084415
        ]
      }
    },
    {
      "type": "Feature",
      "properties": {
        "name": "Vestri friðlandsmörk",
        "date": "17.7.2021",
        "length": "44",
        "description": "Vestan megin við friðlandsmörk"
      },
      "geometry": {
        "type": "Point",
        "coordinates": [
          -19.407267,
          64.067983
        ]
      }
    },
    {
      "type": "Feature",
      "properties": {
        "name": "Tungnaáröræfi",
        "date": "25.7.2021",
        "length": "40",
        "description": "Tungnaáröræfi"
      },
      "geometry": {
        "type": "Point",
        "coordinates": [
          -18.531952,
          64.330973
        ]
      }
    },
    {
      "type": "Feature",
      "properties": {
        "name": "Dyngjuleið",
        "date": "25.7.2021",
        "length": "60",
        "description": "Dyngjuleið"
      },
      "geometry": {
        "type": "Point",
        "coordinates": [
          -19.281178,
          64.112978
        ]
      }
    },
    {
      "type": "Feature",
      "properties": {
        "name": "Hekluafleggjara",
        "date": "25.7.2021",
        "length": "500",
        "description": "Vestan við austari Hekluafleggjara á F225"
      },
      "geometry": {
        "type": "Point",
        "coordinates": [
          -19.536542,
          64.074482
        ]
      }
    },
    {
      "type": "Feature",
      "properties": {
        "name": "Bjallavað",
        "date": "25.7.2021",
        "length": "0",
        "description": "Við Bjallavað"
      },
      "geometry": {
        "type": "Point",
        "coordinates": [
          -19.102558,
          64.104225
        ]
      }
    },
    {
      "type": "Feature",
      "properties": {
        "name": "Sigöldugljúfur",
        "date": "30.7.2021",
        "length": "500",
        "description": "Við Sigöldugljúfur"
      },
      "geometry": {
        "type": "Point",
        "coordinates": [
          -19.116248,
          64.158933
        ]
      }
    },
    {
      "type": "Feature",
      "properties": {
        "name": "Hnausapolli",
        "date": "31.7.2021",
        "length": "15",
        "description": "Að Hnausapolli"
      },
      "geometry": {
        "type": "Point",
        "coordinates": [
          -19.040512,
          64.034679
        ]
      }
    },
    {
      "type": "Feature",
      "properties": {
        "name": " Sigöldugljúfri",
        "date": "31.7.2021",
        "length": "0",
        "description": "Á línuvegi að Sigöldugljúfri"
      },
      "geometry": {
        "type": "Point",
        "coordinates": [
          -19.13867,
          64.059675
        ]
      }
    },
    {
      "type": "Feature",
      "properties": {
        "name": "Hnausapoll",
        "date": "1.8.2021",
        "length": "19",
        "description": "Sunnan við Hnausapoll"
      },
      "geometry": {
        "type": "Point",
        "coordinates": [
          -19.101282,
          64.087658
        ]
      }
    },
    {
      "type": "Feature",
      "properties": {
        "name": "Laugaveginum",
        "date": "2.8.2021",
        "length": "564",
        "description": "Á Laugaveginum, norðan Stórahvers en sunnan Skallaafleggjara"
      },
      "geometry": {
        "type": "Point",
        "coordinates": [
          -19.050888,
          64.073005
        ]
      }
    },
    {
      "type": "Feature",
      "properties": {
        "name": "Eskihlíðarhnausa",
        "date": "3.8.2021",
        "length": "10",
        "description": "Við Eskihlíðarhnausa"
      },
      "geometry": {
        "type": "Point",
        "coordinates": [
          -19.057227,
          64.086141
        ]
      }
    },
    {
      "type": "Feature",
      "properties": {
        "name": "Eskihlíðarhnausa",
        "date": "3.8.2021",
        "length": "27",
        "description": "Við Eskihlíðarhnausa"
      },
      "geometry": {
        "type": "Point",
        "coordinates": [
          -19.056965,
          64.086949
        ]
      }
    },
    {
      "type": "Feature",
      "properties": {
        "name": "Eskihlíðarhnausa",
        "date": "3.8.2021",
        "length": "70",
        "description": "Við Eskihlíðarhnausa"
      },
      "geometry": {
        "type": "Point",
        "coordinates": [
          -19.052963,
          64.08463
        ]
      }
    },
    {
      "type": "Feature",
      "properties": {
        "name": "Landmannalaugum",
        "date": "5.8.2021",
        "length": "18",
        "description": "Landmannalaugum"
      },
      "geometry": {
        "type": "Point",
        "coordinates": [
          -19.059423,
          64.066689
        ]
      }
    },
    {
      "type": "Feature",
      "properties": {
        "name": "Hnausapolli",
        "date": "7.8.2021",
        "length": "50",
        "description": "Nálægt Hnausapolli"
      },
      "geometry": {
        "type": "Point",
        "coordinates": [
          -19.114292,
          64.07175
        ]
      }
    },
    {
      "type": "Feature",
      "properties": {
        "name": "Dómadalshraun",
        "date": "10.8.2021",
        "length": "4",
        "description": "Dómadalshraun"
      },
      "geometry": {
        "type": "Point",
        "coordinates": [
          -19.050242,
          64.067303
        ]
      }
    },
    {
      "type": "Feature",
      "properties": {
        "name": "Dómadalshraun/Frostastaðavatn",
        "date": "10.8.2021",
        "length": "25",
        "description": "Dómadalshraun/Frostastaðavatn"
      },
      "geometry": {
        "type": "Point",
        "coordinates": [
          -19.033918,
          64.07879
        ]
      }
    },
    {
      "type": "Feature",
      "properties": {
        "name": "Ljótipollur",
        "date": "10.8.2021",
        "length": "15",
        "description": "Ljótipollur"
      },
      "geometry": {
        "type": "Point",
        "coordinates": [
          -19.059138,
          64.091547
        ]
      }
    },
    {
      "type": "Feature",
      "properties": {
        "name": "Ljótipollur",
        "date": "10.8.2021",
        "length": "5",
        "description": "Ljótipollur"
      },
      "geometry": {
        "type": "Point",
        "coordinates": [
          -19.014113,
          64.093994
        ]
      }
    },
    {
      "type": "Feature",
      "properties": {
        "name": "Ljótipollur/línuvegur",
        "date": "10.8.2021",
        "length": "15",
        "description": "Ljótipollur/línuvegur"
      },
      "geometry": {
        "type": "Point",
        "coordinates": [
          -19.061875,
          64.084007
        ]
      }
    },
    {
      "type": "Feature",
      "properties": {
        "name": "Hnausapolls/Eskihlíðarvatni",
        "date": "13.8.2021",
        "length": "50",
        "description": "Á 208 milli Hnausapolls og afleggjara að Eskihlíðarvatni"
      },
      "geometry": {
        "type": "Point",
        "coordinates": [
          -19.050896,
          64.092862
        ]
      }
    },
    {
      "type": "Feature",
      "properties": {
        "name": "Hnausapoll",
        "date": "13.8.2021",
        "length": "211",
        "description": "Norðan við Hnausapoll"
      },
      "geometry": {
        "type": "Point",
        "coordinates": [
          -19.056729,
          64.091876
        ]
      }
    },
    {
      "type": "Feature",
      "properties": {
        "name": "Dyngjuleið",
        "date": "14.8.2021",
        "length": "10",
        "description": "Dyngjuleið, vestan Laufdalsvatns"
      },
      "geometry": {
        "type": "Point",
        "coordinates": [
          -19.054463,
          64.084778
        ]
      }
    },
    {
      "type": "Feature",
      "properties": {
        "name": "Eskihlíðarhnausa",
        "date": "22.8.2021",
        "length": "156",
        "description": "Við Eskihlíðarhnausa"
      },
      "geometry": {
        "type": "Point",
        "coordinates": [
          -19.050537,
          64.091519
        ]
      }
    },
    {
      "type": "Feature",
      "properties": {
        "name": "Eskihlíðarhnausa",
        "date": "22.8.2021",
        "length": "92",
        "description": "Við Eskihlíðarhnausa"
      },
      "geometry": {
        "type": "Point",
        "coordinates": [
          -19.040935,
          64.079226
        ]
      }
    },
    {
      "type": "Feature",
      "properties": {
        "name": "Hnausapoll",
        "date": "26.8.2021",
        "length": "20",
        "description": "Norðan við Hnausapoll"
      },
      "geometry": {
        "type": "Point",
        "coordinates": [
          -19.03351,
          64.085098
        ]
      }
    },
    {
      "type": "Feature",
      "properties": {
        "name": "Hnausapoll",
        "date": "26.8.2021",
        "length": "83",
        "description": "Norðan við Hnausapoll"
      },
      "geometry": {
        "type": "Point",
        "coordinates": [
          -18.985281,
          64.050983
        ]
      }
    },
    {
      "type": "Feature",
      "properties": {
        "name": "Hnausapoll",
        "date": "27.8.2021",
        "length": "10",
        "description": "Norðan við Hnausapoll"
      },
      "geometry": {
        "type": "Point",
        "coordinates": [
          -19.005352,
          64.044515
        ]
      }
    },
    {
      "type": "Feature",
      "properties": {
        "name": "Haldórsgil",
        "date": "7/22/22",
        "length": "25",
        "description": "Viðkvæmur jarðvegur (Mossi)"
      },
      "geometry": {
        "type": "Point",
        "coordinates": [
          -18.9674586,
          63.9851812
        ]
      }
    },
    {
      "type": "Feature",
      "properties": {
        "name": "Hnausapollur",
        "date": "7/21/22",
        "length": "20",
        "description": "Steinilagður sandur"
      },
      "geometry": {
        "type": "Point",
        "coordinates": [
          -19.0339523,
          64.0552241
        ]
      }
    },
    {
      "type": "Feature",
      "properties": {
        "name": "F225 hjá valahnúkum ",
        "date": "8/9/22",
        "length": "40",
        "description": "Sandur "
      },
      "geometry": {
        "type": "Point",
        "coordinates": [
          -19.495139,
          64.076023
        ]
      }
    },
    {
      "type": "Feature",
      "properties": {
        "name": "Á dyngjuleið rétt hjá Valagjá",
        "date": "8/9/22",
        "length": "27",
        "description": "hraun melur"
      },
      "geometry": {
        "type": "Point",
        "coordinates": [
          -19.5016,
          64.065016
        ]
      }
    },
    {
      "type": "Feature",
      "properties": {
        "name": "Á dyngjuleið ",
        "date": "8/9/22",
        "length": "30",
        "description": "sendið gróðurlendi "
      },
      "geometry": {
        "type": "Point",
        "coordinates": [
          -19.5025,
          64.071708
        ]
      }
    },
    {
      "type": "Feature",
      "properties": {
        "name": "Línuvegur frá Sigölduleið að ljótapolli ",
        "date": "7/13/22",
        "length": "200",
        "description": "Sandi "
      },
      "geometry": {
        "type": "Point",
        "coordinates": [
          -19.01025,
          64.0726
        ]
      }
    },
    {
      "type": "Feature",
      "properties": {
        "name": "Norðan við Frostastaðavatn",
        "date": "8/15/22",
        "length": "400",
        "description": "Sandur og möl"
      },
      "geometry": {
        "type": "Point",
        "coordinates": [
          -19.0028209,
          64.01939
        ]
      }
    },
    {
      "type": "Feature",
      "properties": {
        "name": "F224 milli landmallalauga og sólvangs ",
        "date": "7/9/22",
        "length": "10",
        "description": "Hélumosi, Mosi og lynggróður"
      },
      "geometry": {
        "type": "Point",
        "coordinates": [
          -19.02799,
          64.000976
        ]
      }
    },
    {
      "type": "Feature",
      "properties": {
        "name": "Á sigölduleið vestan við Tjörvafell og Hnausapoll ",
        "date": "7/1/22",
        "length": "131",
        "description": "sandur og melur"
      },
      "geometry": {
        "type": "Point",
        "coordinates": [
          -19.0301,
          64.0253
        ]
      }
    },
    {
      "type": "Feature",
      "properties": {
        "name": "Austan við Dómadalsvatn",
        "date": "8/26/22",
        "length": "25",
        "description": "hraun og sandur"
      },
      "geometry": {
        "type": "Point",
        "coordinates": [
          -19.0299851,
          64.017939
        ]
      }
    },
    {
      "type": "Feature",
      "properties": {
        "name": "Austan Dómadalshrauns",
        "date": "8/26/22",
        "length": "5",
        "description": "Sandur og möl"
      },
      "geometry": {
        "type": "Point",
        "coordinates": [
          -19.03,
          64.019436
        ]
      }
    }
  ]
}